{"cities":[{"lat":34.340382,"lng":134.889557,"name":"洲本健康福祉事務所管内","cases":122},{"lat":34.831408,"lng":134.549424,"name":"龍野健康福祉事務所管内, たつの市","cases":275},{"lat":34.9185915,"lng":134.9734436,"name":"加東健康福祉事務所管内, 加東市","cases":216},{"lat":34.756919,"lng":134.84136,"name":"加古川市, 加古川健康福祉事務所管内, 加古川健康事務所管内","cases":648},{"lat":35.689487,"lng":139.691711,"name":"東京都","cases":6},{"lat":36.204823,"lng":138.25293,"name":"県外, 明石市外, 西宮市外, 八幡市, 調査中, 神戸市外, 伊丹健康福祉事務所管外, 管外, 県外（大阪府内）, 非公表","cases":1601},{"lat":34.784348,"lng":135.40091,"name":"伊丹健康福祉事務所管内, 伊丹市","cases":727},{"lat":34.643208,"lng":134.997586,"name":"明石市, 明石","cases":346},{"lat":34.737603,"lng":135.341511,"name":"西宮市","cases":1009},{"lat":34.732711,"lng":135.405791,"name":"尼崎市","cases":1140},{"lat":34.815418,"lng":134.685551,"name":"姫路市","cases":925},{"lat":35.339783,"lng":134.852348,"name":"朝来健康福祉事務所管内, 朝来市","cases":17},{"lat":34.796896,"lng":134.990194,"name":"三木市","cases":15},{"lat":34.683336,"lng":135.163486,"name":"県内","cases":20},{"lat":34.830199,"lng":135.417395,"name":"川西市","cases":110},{"lat":34.799984,"lng":135.360259,"name":"宝塚市, 宝塚健康福祉事務所管内","cases":445},{"lat":34.755069,"lng":134.390227,"name":"赤穂健康福祉事務所管内, 赤穂市","cases":67},{"lat":34.853198,"lng":134.93151,"name":"小野市","cases":5},{"lat":34.726954,"lng":135.304127,"name":"芦屋市, 芦屋健康福祉事務所管内","cases":177},{"lat":34.6413315,"lng":135.5629394,"name":"大阪市, 大阪府","cases":32},{"lat":35.177132,"lng":135.035842,"name":"丹波健康福祉事務所管内, 丹波市","cases":37},{"lat":34.7152468,"lng":134.8680023,"name":"播磨町","cases":10},{"lat":34.690081,"lng":135.195631,"name":"神戸市","cases":2118},{"lat":34.7661005,"lng":134.7906014,"name":"高砂市","cases":34},{"lat":34.89,"lng":135.225507,"name":"三田市","cases":81},{"lat":34.9280226,"lng":134.841609,"name":"加西市","cases":9},{"lat":34.759359,"lng":135.516477,"name":"吹田市","cases":3},{"lat":34.822511,"lng":134.693029,"name":"中播磨健康福祉事務所管内","cases":61},{"lat":34.993388,"lng":134.969355,"name":"西脇市","cases":4},{"lat":34.781108,"lng":135.469953,"name":"豊中市","cases":4},{"lat":35.544556,"lng":134.820241,"name":"豊岡健康福祉事務所管内","cases":16},{"lat":34.8950618,"lng":135.3761626,"name":"猪名川町","cases":3},{"lat":35.623691,"lng":134.44893,"name":"新温泉町","cases":2},{"lat":35.050216,"lng":134.923425,"name":"多可町","cases":2},{"lat":34.76625,"lng":135.628018,"name":"寝屋川市","cases":1},{"lat":35.004241,"lng":134.549379,"name":"宍粟市","cases":7},{"lat":34.821557,"lng":135.42838,"name":"池田市","cases":1},{"lat":34.573326,"lng":135.483118,"name":"堺市","cases":1},{"lat":35.335416,"lng":140.183252,"name":"千葉県","cases":1},{"lat":34.222592,"lng":134.019915,"name":"香川県","cases":1},{"lat":40.765708,"lng":140.917588,"name":"青森県","cases":1},{"lat":33.248853,"lng":129.693091,"name":"長崎県","cases":4},{"lat":35.011564,"lng":135.768149,"name":"京都市","cases":1},{"lat":35.694549,"lng":139.982728,"name":"千葉県船橋市","cases":1},{"lat":34.75,"lng":134.916667,"name":"稲美町","cases":16},{"lat":34.29449,"lng":134.779782,"name":"南あわじ市","cases":1},{"lat":34.4396558,"lng":134.9149109,"name":"淡路市","cases":9},{"lat":34.950238,"lng":134.760182,"name":"福崎町","cases":1}]}