{"cities":[{"lat":34.89,"lng":135.225507,"name":"三田市 Sanda","cases":9},{"lat":35.177132,"lng":135.035842,"name":"丹波市 Tamba","cases":1},{"lat":34.784348,"lng":135.40091,"name":"伊丹市 Itami","cases":81},{"lat":34.756919,"lng":134.84136,"name":"加古川市 Kakogawa","cases":15},{"lat":34.9185915,"lng":134.9734436,"name":"加東市 Kato","cases":6},{"lat":34.9280226,"lng":134.841609,"name":"加西市 Kasai","cases":1},{"lat":34.6413315,"lng":135.5629394,"name":"大阪府 Osaka Prefecture","cases":2},{"lat":34.815418,"lng":134.685551,"name":"姫路市 Himeji","cases":40},{"lat":34.799984,"lng":135.360259,"name":"宝塚市 Takarazuka","cases":48},{"lat":34.732711,"lng":135.405791,"name":"尼崎市 Amagasaki","cases":44},{"lat":34.830199,"lng":135.417395,"name":"川西市 Kawanishi","cases":14},{"lat":34.7152468,"lng":134.8680023,"name":"播磨町 Harima","cases":1},{"lat":34.6381,"lng":135.052094,"name":"明石市 Akashi","cases":17},{"lat":35.689487,"lng":139.691711,"name":"東京 Tokyo","cases":2},{"lat":34.340382,"lng":134.889557,"name":"洲本 Sumoto","cases":1},{"lat":34.4396558,"lng":134.9149109,"name":"淡路市 Awaji","cases":6},{"lat":34.8950618,"lng":135.3761626,"name":"猪名川町 Inagawa","cases":1},{"lat":34.690081,"lng":135.195631,"name":"神戸市 Kobe","cases":244},{"lat":36.204823,"lng":138.25293,"name":"神戸市外 Outside Kobe","cases":6},{"lat":34.950238,"lng":134.760182,"name":"福崎町 Fukusaki","cases":1},{"lat":34.75,"lng":134.916667,"name":"稲美町 Inami","cases":5},{"lat":34.726954,"lng":135.304127,"name":"芦屋市 Ashiya","cases":24},{"lat":34.737603,"lng":135.341511,"name":"西宮市 Nishinomiya","cases":67},{"lat":36.204823,"lng":138.25293,"name":"西宮市外 Outside Nishinomiya","cases":1},{"lat":36.204823,"lng":138.25293,"name":"調査中 Under investigation","cases":22},{"lat":36.204823,"lng":138.25293,"name":"非公表 Undiclosed","cases":2},{"lat":34.7661005,"lng":134.7906014,"name":"高砂市 Takasago","cases":7}]}