{"cities":[{"lat":34.796896,"lng":134.990194,"name":"三木市 Miki","cases":5},{"lat":34.89,"lng":135.225507,"name":"三田市 Sanda","cases":32},{"lat":34.822511,"lng":134.693029,"name":"中播磨 Naka-Harima","cases":6},{"lat":35.177132,"lng":135.035842,"name":"丹波市 Tamba","cases":10},{"lat":35.011564,"lng":135.768149,"name":"京都市 Kyoto","cases":1},{"lat":34.784348,"lng":135.40091,"name":"伊丹市 Itami","cases":228},{"lat":34.756919,"lng":134.84136,"name":"加古川市 Kakogawa","cases":77},{"lat":34.9185915,"lng":134.9734436,"name":"加東市 Kato","cases":56},{"lat":34.9280226,"lng":134.841609,"name":"加西市 Kasai","cases":3},{"lat":35.335416,"lng":140.183252,"name":"千葉県","cases":1},{"lat":35.694549,"lng":139.982728,"name":"千葉県船橋市 Funabashi, Chiba","cases":1},{"lat":34.29449,"lng":134.779782,"name":"南あわじ市 Minami-awaji","cases":1},{"lat":34.6413315,"lng":135.5629394,"name":"大阪市 Osaka","cases":12},{"lat":34.6413315,"lng":135.5629394,"name":"大阪府 Osaka Prefecture","cases":6},{"lat":34.815418,"lng":134.685551,"name":"姫路市 Himeji","cases":201},{"lat":34.799984,"lng":135.360259,"name":"宝塚市 Takarazuka","cases":159},{"lat":34.853198,"lng":134.93151,"name":"小野市 Ono","cases":2},{"lat":34.732711,"lng":135.405791,"name":"尼崎市 Amagasaki","cases":360},{"lat":34.830199,"lng":135.417395,"name":"川西市 Kawanishi","cases":30},{"lat":34.7152468,"lng":134.8680023,"name":"播磨町 Harima","cases":1},{"lat":34.643208,"lng":134.997586,"name":"明石市 Akashi","cases":107},{"lat":36.204823,"lng":138.25293,"name":"明石市外","cases":2},{"lat":35.339783,"lng":134.852348,"name":"朝来 Asago","cases":9},{"lat":35.689487,"lng":139.691711,"name":"東京都 Tokyo Metropolis","cases":2},{"lat":34.340382,"lng":134.889557,"name":"洲本 Sumoto","cases":19},{"lat":34.4396558,"lng":134.9149109,"name":"淡路市 Awaji","cases":9},{"lat":34.8950618,"lng":135.3761626,"name":"猪名川町 Inagawa","cases":1},{"lat":36.204823,"lng":138.25293,"name":"県外 Outside Hyogo","cases":8},{"lat":34.690081,"lng":135.195631,"name":"神戸市 Kobe","cases":1084},{"lat":36.204823,"lng":138.25293,"name":"神戸市外 Outside Kobe","cases":51},{"lat":34.950238,"lng":134.760182,"name":"福崎町 Fukusaki","cases":1},{"lat":34.75,"lng":134.916667,"name":"稲美町 Inami","cases":16},{"lat":34.726954,"lng":135.304127,"name":"芦屋市 Ashiya","cases":89},{"lat":34.737603,"lng":135.341511,"name":"西宮市 Nishinomiya","cases":335},{"lat":36.204823,"lng":138.25293,"name":"西宮市外 Outside Nishinomiya","cases":36},{"lat":34.993388,"lng":134.969355,"name":"西脇市 Nishiwaki","cases":2},{"lat":36.204823,"lng":138.25293,"name":"調査中 Under investigation","cases":26},{"lat":34.781108,"lng":135.469953,"name":"豊中市 Toyonaka","cases":1},{"lat":35.544556,"lng":134.820241,"name":"豊岡 Toyooka","cases":1},{"lat":34.755069,"lng":134.390227,"name":"赤穂市 Ako","cases":21},{"lat":33.248853,"lng":129.693091,"name":"長崎県","cases":4},{"lat":40.765708,"lng":140.917588,"name":"青森県","cases":1},{"lat":36.204823,"lng":138.25293,"name":"非公表","cases":1},{"lat":34.222592,"lng":134.019915,"name":"香川県","cases":1},{"lat":34.7661005,"lng":134.7906014,"name":"高砂市 Takasago","cases":13},{"lat":34.831408,"lng":134.549424,"name":"龍野 Tatsuno","cases":24}]}