{"cities":[{"lat":34.340382,"lng":134.889557,"name":"洲本健康福祉事務所管内","cases":178},{"lat":35.177132,"lng":135.035842,"name":"丹波健康福祉事務所管内","cases":80},{"lat":34.755069,"lng":134.390227,"name":"赤穂市, 赤穂健康福祉事務所管内","cases":85},{"lat":34.831408,"lng":134.549424,"name":"龍野健康福祉事務所管内, たつの市, 龍野健康福祉\n事務所管内","cases":203},{"lat":34.822511,"lng":134.693029,"name":"中播磨健康福祉事務所管内","cases":46},{"lat":34.9185915,"lng":134.9734436,"name":"加東健康福祉事務所管内, 加東市","cases":419},{"lat":34.796896,"lng":134.990194,"name":"三木市","cases":56},{"lat":35.050216,"lng":134.923425,"name":"多可町","cases":5},{"lat":34.756919,"lng":134.84136,"name":"加古川健康福祉事務所管内, 加古川市","cases":550},{"lat":34.7661005,"lng":134.7906014,"name":"高砂市","cases":68},{"lat":34.784348,"lng":135.40091,"name":"伊丹市, 伊丹健康福祉事務所管内","cases":685},{"lat":34.830199,"lng":135.417395,"name":"川西市","cases":158},{"lat":34.846193,"lng":135.617413,"name":"高槻市","cases":1},{"lat":34.821557,"lng":135.42838,"name":"池田市","cases":2},{"lat":34.737603,"lng":135.341511,"name":"西宮市","cases":1333},{"lat":34.799984,"lng":135.360259,"name":"宝塚市, 宝塚健康福祉事務所管内","cases":768},{"lat":34.89,"lng":135.225507,"name":"三田市","cases":195},{"lat":34.6413315,"lng":135.5629394,"name":"大阪府, 大阪市","cases":36},{"lat":34.726954,"lng":135.304127,"name":"芦屋市, 芦屋健康福祉事務所管内","cases":275},{"lat":34.690081,"lng":135.195631,"name":"神戸市","cases":473},{"lat":34.643208,"lng":134.997586,"name":"明石市","cases":808},{"lat":36.204823,"lng":138.25293,"name":"明石市外, 西宮市外, 県外, 調査中, 管内, 龍野健康福祉事務所管, 加東健康福祉事務所管内, 名古屋市, 市川町, 非公表, 奈良県, 丹波篠山市, 豊岡市, 豊岡健康福祉事務所, 門真市, 養父市, 神戸市外, 加東健康福祉事務所管轄内, 大東市, 向日市, 愛知県","cases":5834},{"lat":34.732711,"lng":135.405791,"name":"尼崎市","cases":1471},{"lat":34.815418,"lng":134.685551,"name":"姫路市","cases":774},{"lat":34.993388,"lng":134.969355,"name":"西脇市","cases":5},{"lat":34.816359,"lng":135.568502,"name":"茨木市","cases":1},{"lat":34.9280226,"lng":134.841609,"name":"加西市","cases":3},{"lat":34.7152468,"lng":134.8680023,"name":"播磨町","cases":10},{"lat":34.683336,"lng":135.163486,"name":"県内","cases":20},{"lat":34.781108,"lng":135.469953,"name":"豊中市","cases":5},{"lat":35.004241,"lng":134.549379,"name":"宍粟市","cases":2},{"lat":34.853198,"lng":134.93151,"name":"小野市","cases":3},{"lat":34.75,"lng":134.916667,"name":"稲美町","cases":7},{"lat":34.8950618,"lng":135.3761626,"name":"猪名川町","cases":7},{"lat":35.339783,"lng":134.852348,"name":"朝来健康福祉事務所管内","cases":19},{"lat":34.82693,"lng":135.470457,"name":"箕面市","cases":1},{"lat":35.544556,"lng":134.820241,"name":"豊岡健康福祉事務所管内","cases":21},{"lat":34.759359,"lng":135.516477,"name":"吹田市","cases":1},{"lat":35.689487,"lng":139.691711,"name":"東京都","cases":1},{"lat":34.679286,"lng":135.600851,"name":"東大阪市","cases":1},{"lat":34.573326,"lng":135.483118,"name":"堺市","cases":1}]}