{"cities":[{"lat":35.544556,"lng":134.820241,"name":"豊岡健康福祉事務所管内, 豊岡健康福祉事務管内","cases":98},{"lat":34.755069,"lng":134.390227,"name":"赤穂健康福祉事務所管内, 赤穂市","cases":103},{"lat":34.831408,"lng":134.549424,"name":"龍野健康福祉事務所管内, 龍野健康福祉事務所管内, たつの市","cases":386},{"lat":34.9185915,"lng":134.9734436,"name":"加東健康福祉事務所管内, 加東市, 加東健康福祉事務所","cases":456},{"lat":34.784348,"lng":135.40091,"name":"伊丹健康福祉事務所管内, 伊丹市","cases":1174},{"lat":34.683336,"lng":135.163486,"name":"県内","cases":52},{"lat":34.799984,"lng":135.360259,"name":"宝塚市, 宝塚健康福祉事務所管内, 宝塚市, 宝塚健康福祉事務所管内","cases":732},{"lat":34.89,"lng":135.225507,"name":"三田市","cases":110},{"lat":34.726954,"lng":135.304127,"name":"芦屋市, 芦屋健康福祉事務所管内","cases":254},{"lat":34.737603,"lng":135.341511,"name":"西宮市","cases":1694},{"lat":34.732711,"lng":135.405791,"name":"尼崎市","cases":2099},{"lat":34.643208,"lng":134.997586,"name":"明石市, 明石","cases":630},{"lat":34.815418,"lng":134.685551,"name":"姫路市","cases":1579},{"lat":36.204823,"lng":138.25293,"name":"調査中, 西宮市外, 県外, 神戸市外, 明石市外, 丹波篠山市, 神戸市　, 神奈川県, 八尾市, 鹿児島県, 伊丹健康福祉事務所管外, 管外, 県外（大阪府内）, 非公表","cases":3106},{"lat":34.830199,"lng":135.417395,"name":"川西市","cases":128},{"lat":34.690081,"lng":135.195631,"name":"神戸市","cases":3263},{"lat":34.756919,"lng":134.84136,"name":"加古川健康福祉事務所管内, 加古川市, 加古川健康事務所管内","cases":1085},{"lat":34.340382,"lng":134.889557,"name":"洲本健康福祉事務所管内","cases":153},{"lat":35.177132,"lng":135.035842,"name":"丹波健康福祉事務所管内, 丹波市","cases":86},{"lat":34.796896,"lng":134.990194,"name":"三木市","cases":30},{"lat":34.822511,"lng":134.693029,"name":"中播磨健康福祉事務所管内, 中播磨健康福祉事務所","cases":101},{"lat":34.6413315,"lng":135.5629394,"name":"大阪市, 大阪府","cases":56},{"lat":34.7661005,"lng":134.7906014,"name":"高砂市","cases":97},{"lat":34.993388,"lng":134.969355,"name":"西脇市","cases":6},{"lat":34.7152468,"lng":134.8680023,"name":"播磨町","cases":31},{"lat":34.8950618,"lng":135.3761626,"name":"猪名川町","cases":5},{"lat":34.75,"lng":134.916667,"name":"稲美町","cases":26},{"lat":34.781108,"lng":135.469953,"name":"豊中市","cases":5},{"lat":35.339783,"lng":134.852348,"name":"朝来健康福祉事務所管内, 朝来市","cases":37},{"lat":34.679286,"lng":135.600851,"name":"東大阪市","cases":1},{"lat":34.846193,"lng":135.617413,"name":"高槻市","cases":2},{"lat":34.759359,"lng":135.516477,"name":"吹田市","cases":4},{"lat":34.853198,"lng":134.93151,"name":"小野市","cases":7},{"lat":34.573326,"lng":135.483118,"name":"堺市","cases":2},{"lat":34.82693,"lng":135.470457,"name":"箕面市","cases":1},{"lat":34.541247,"lng":135.698984,"name":"香芝市","cases":1},{"lat":34.833277,"lng":134.57228,"name":"太子町","cases":2},{"lat":34.816359,"lng":135.568502,"name":"茨木市","cases":1},{"lat":35.335416,"lng":140.183252,"name":"千葉県","cases":2},{"lat":35.689487,"lng":139.691711,"name":"東京都","cases":10},{"lat":35.443674,"lng":139.637964,"name":"横浜市","cases":1},{"lat":35.339165,"lng":139.49014,"name":"藤沢市","cases":1},{"lat":35.011564,"lng":135.768149,"name":"京都市","cases":2},{"lat":34.875561,"lng":135.707668,"name":"八幡市","cases":1},{"lat":34.9280226,"lng":134.841609,"name":"加西市","cases":9},{"lat":35.623691,"lng":134.44893,"name":"新温泉町","cases":2},{"lat":35.050216,"lng":134.923425,"name":"多可町","cases":2},{"lat":34.76625,"lng":135.628018,"name":"寝屋川市","cases":1},{"lat":35.004241,"lng":134.549379,"name":"宍粟市","cases":7},{"lat":34.821557,"lng":135.42838,"name":"池田市","cases":1},{"lat":34.222592,"lng":134.019915,"name":"香川県","cases":1},{"lat":40.765708,"lng":140.917588,"name":"青森県","cases":1},{"lat":33.248853,"lng":129.693091,"name":"長崎県","cases":4},{"lat":35.694549,"lng":139.982728,"name":"千葉県船橋市","cases":1},{"lat":34.29449,"lng":134.779782,"name":"南あわじ市","cases":1},{"lat":34.4396558,"lng":134.9149109,"name":"淡路市","cases":9},{"lat":34.950238,"lng":134.760182,"name":"福崎町","cases":1}]}