{"cities":[{"lat":34.755069,"lng":134.390227,"name":"赤穂健康福祉事務所管内, 赤穂市","cases":35},{"lat":34.690081,"lng":135.195631,"name":"神戸市","cases":255},{"lat":34.9185915,"lng":134.9734436,"name":"加東健康福祉事務所管内, 加東市","cases":93},{"lat":34.756919,"lng":134.84136,"name":"加古川市, 加古川健康福祉事務所管内","cases":151},{"lat":34.7661005,"lng":134.7906014,"name":"高砂市","cases":10},{"lat":34.784348,"lng":135.40091,"name":"伊丹健康福祉事務所管内, 伊丹市","cases":276},{"lat":34.830199,"lng":135.417395,"name":"川西市","cases":34},{"lat":34.6413315,"lng":135.5629394,"name":"大阪府, 大阪市","cases":7},{"lat":34.799984,"lng":135.360259,"name":"宝塚市, 宝塚健康福祉事務所管内","cases":221},{"lat":34.89,"lng":135.225507,"name":"三田市","cases":46},{"lat":34.726954,"lng":135.304127,"name":"芦屋市, 芦屋健康福祉事務所管内","cases":87},{"lat":34.643208,"lng":134.997586,"name":"明石市","cases":298},{"lat":34.737603,"lng":135.341511,"name":"西宮市","cases":455},{"lat":36.204823,"lng":138.25293,"name":"西宮市外, 調査中, 豊岡市, 非公表, 明石市外, 県外, 豊岡健康福祉事務所, 門真市, 養父市, 丹波篠山市, 奈良県, 神戸市外, 加東健康福祉事務所管轄内, 大東市, 向日市, 愛知県","cases":2029},{"lat":34.732711,"lng":135.405791,"name":"尼崎市","cases":563},{"lat":34.815418,"lng":134.685551,"name":"姫路市","cases":247},{"lat":34.340382,"lng":134.889557,"name":"洲本健康福祉事務所管内","cases":26},{"lat":35.177132,"lng":135.035842,"name":"丹波健康福祉事務所管内","cases":45},{"lat":35.544556,"lng":134.820241,"name":"豊岡健康福祉事務所管内","cases":18},{"lat":34.831408,"lng":134.549424,"name":"龍野健康福祉事務所管内, たつの市","cases":44},{"lat":34.822511,"lng":134.693029,"name":"中播磨健康福祉事務所管内","cases":22},{"lat":34.683336,"lng":135.163486,"name":"県内","cases":14},{"lat":34.8950618,"lng":135.3761626,"name":"猪名川町","cases":3},{"lat":35.689487,"lng":139.691711,"name":"東京都","cases":1},{"lat":34.796896,"lng":134.990194,"name":"三木市","cases":4},{"lat":35.339783,"lng":134.852348,"name":"朝来健康福祉事務所管内","cases":12},{"lat":34.781108,"lng":135.469953,"name":"豊中市","cases":1},{"lat":34.7152468,"lng":134.8680023,"name":"播磨町","cases":3},{"lat":34.679286,"lng":135.600851,"name":"東大阪市","cases":1},{"lat":34.853198,"lng":134.93151,"name":"小野市","cases":1},{"lat":35.004241,"lng":134.549379,"name":"宍粟市","cases":1},{"lat":34.573326,"lng":135.483118,"name":"堺市","cases":1}]}